UID,iso2,iso3,code3,FIPS,Admin2,Province_State,county_state,Lat,Long_,Combined_Key,1/22/20,1/23/20,1/24/20,1/25/20,1/26/20,1/27/20,1/28/20,1/29/20,1/30/20,1/31/20,2/1/20,2/2/20,2/3/20,2/4/20,2/5/20,2/6/20,2/7/20,2/8/20,2/9/20,2/10/20,2/11/20,2/12/20,2/13/20,2/14/20,2/15/20,2/16/20,2/17/20,2/18/20,2/19/20,2/20/20,2/21/20,2/22/20,2/23/20,2/24/20,2/25/20,2/26/20,2/27/20,2/28/20,2/29/20,3/1/20,3/2/20,3/3/20,3/4/20,3/5/20,3/6/20,3/7/20,3/8/20,3/9/20,3/10/20,3/11/20,3/12/20,3/13/20,3/14/20,3/15/20,3/16/20,3/17/20,3/18/20,3/19/20,3/20/20,3/21/20,3/22/20,3/23/20,3/24/20,3/25/20,3/26/20,3/27/20,3/28/20,3/29/20,3/30/20,3/31/20,4/1/20,4/2/20
84004013,US,USA,840,4013,Maricopa,Arizona,Arizona Maricopa,33.3483587,-112.49182,"Maricopa, Arizona, US",0.00,0.00,0.00,0.00,0.02,0.02,0.02,0.02,0.02,0.02,0.02,0.02,0.02,0.02,0.02,0.02,0.02,0.02,0.02,0.02,0.02,0.02,0.02,0.02,0.02,0.02,0.02,0.02,0.02,0.02,0.02,0.02,0.02,0.02,0.02,0.02,0.02,0.02,0.02,0.02,0.02,0.02,0.02,0.02,0.05,0.05,0.05,0.05,0.05,0.07,0.07,0.07,0.09,0.09,0.18,0.20,0.25,0.50,0.77,1.11,1.84,3.15,4.51,5.69,6.78,9.05,10.29,12.36,15.64,17.86,19.75,21.79
84004019,US,USA,840,4019,Pima,Arizona,Arizona Pima,32.0971334,-111.789,"Pima, Arizona, US",0.00,0.00,0.00,0.00,0.00,0.00,0.00,0.00,0.00,0.00,0.00,0.00,0.00,0.00,0.00,0.00,0.00,0.00,0.00,0.00,0.00,0.00,0.00,0.00,0.00,0.00,0.00,0.00,0.00,0.00,0.00,0.00,0.00,0.00,0.00,0.00,0.00,0.00,0.00,0.00,0.00,0.00,0.00,0.00,0.00,0.00,0.00,0.00,0.10,0.10,0.10,0.10,0.19,0.19,0.38,0.38,0.48,0.67,0.77,1.15,1.64,2.31,4.04,4.72,7.22,9.82,11.55,14.73,18.00,19.44,20.89,22.81
84006001,US,USA,840,6001,Alameda,California,California Alameda,37.6462944,-121.89293,"Alameda, California, US",0.00,0.00,0.00,0.00,0.00,0.00,0.00,0.00,0.00,0.00,0.00,0.00,0.00,0.00,0.00,0.00,0.00,0.00,0.00,0.00,0.00,0.00,0.00,0.00,0.00,0.00,0.00,0.00,0.00,0.00,0.00,0.00,0.00,0.00,0.00,0.00,0.00,0.00,0.00,0.00,0.00,0.06,0.06,0.06,0.06,0.12,0.12,0.12,0.18,0.30,0.30,0.42,0.66,0.66,1.08,1.62,1.80,2.28,2.88,4.08,4.26,7.08,8.10,8.10,10.68,13.20,13.20,16.20,16.98,18.78,18.78,21.54
84006013,US,USA,840,6013,Contra Costa,California,California Contra Costa,37.919235,-121.92895,"Contra Costa, California, US",0.00,0.00,0.00,0.00,0.00,0.00,0.00,0.00,0.00,0.00,0.00,0.00,0.00,0.00,0.00,0.00,0.00,0.00,0.00,0.00,0.00,0.00,0.00,0.00,0.00,0.00,0.00,0.00,0.00,0.00,0.00,0.00,0.00,0.00,0.00,0.00,0.00,0.00,0.00,0.00,0.00,0.00,0.09,0.09,0.26,0.26,0.78,0.78,0.78,0.87,1.48,2.17,2.52,2.52,2.96,3.39,3.39,3.57,4.00,4.43,5.30,6.17,7.48,9.39,11.39,12.78,14.61,14.61,16.26,18.43,21.65,21.74
84006019,US,USA,840,6019,Fresno,California,California Fresno,36.757339,-119.6467,"Fresno, California, US",0.00,0.00,0.00,0.00,0.00,0.00,0.00,0.00,0.00,0.00,0.00,0.00,0.00,0.00,0.00,0.00,0.00,0.00,0.00,0.00,0.00,0.00,0.00,0.00,0.00,0.00,0.00,0.00,0.00,0.00,0.00,0.00,0.00,0.00,0.00,0.00,0.00,0.00,0.00,0.00,0.00,0.00,0.00,0.00,0.00,0.00,0.10,0.10,0.10,0.20,0.20,0.10,0.10,0.10,0.20,0.20,0.20,0.30,0.60,0.60,0.60,0.60,1.31,1.81,1.91,2.72,3.12,4.33,4.33,5.33,6.84,8.25
84006029,US,USA,840,6029,Kern,California,California Kern,35.3432943,-118.72778,"Kern, California, US",0.00,0.00,0.00,0.00,0.00,0.00,0.00,0.00,0.00,0.00,0.00,0.00,0.00,0.00,0.00,0.00,0.00,0.00,0.00,0.00,0.00,0.00,0.00,0.00,0.00,0.00,0.00,0.00,0.00,0.00,0.00,0.00,0.00,0.00,0.00,0.00,0.00,0.00,0.00,0.00,0.00,0.00,0.00,0.00,0.00,0.00,0.00,0.00,0.00,0.00,0.00,0.00,0.00,0.00,0.00,0.11,0.11,0.33,0.45,0.56,0.56,1.34,1.45,1.67,3.23,3.68,5.24,5.69,6.69,9.25,12.26,15.83
84006037,US,USA,840,6037,Los Angeles,California,California Los Angeles,34.3082838,-118.22824,"Los Angeles, California, US",0.00,0.00,0.00,0.00,0.01,0.01,0.01,0.01,0.01,0.01,0.01,0.01,0.01,0.01,0.01,0.01,0.01,0.01,0.01,0.01,0.01,0.01,0.01,0.01,0.01,0.01,0.01,0.01,0.01,0.01,0.01,0.01,0.01,0.01,0.01,0.01,0.01,0.01,0.01,0.01,0.01,0.01,0.07,0.11,0.13,0.14,0.14,0.14,0.20,0.27,0.32,0.40,0.52,0.52,0.93,1.42,1.88,2.29,2.89,2.89,4.03,5.30,6.55,8.03,12.16,14.50,14.50,18.10,24.48,29.87,34.81,40.03
84006059,US,USA,840,6059,Orange,California,California Orange,33.7014752,-117.7646,"Orange, California, US",0.00,0.00,0.00,0.00,0.00,0.00,0.00,0.00,0.00,0.00,0.00,0.00,0.00,0.00,0.00,0.00,0.00,0.00,0.00,0.00,0.00,0.00,0.00,0.00,0.00,0.00,0.00,0.00,0.00,0.00,0.00,0.00,0.00,0.00,0.00,0.00,0.00,0.00,0.00,0.00,0.00,0.00,0.00,0.00,0.00,0.00,0.00,0.00,0.00,0.00,0.00,0.00,0.00,0.00,0.00,0.00,0.03,0.03,0.03,0.03,0.03,0.06,0.06,0.06,0.06,0.09,0.09,0.09,0.25,0.28,0.35,0.38
84006065,US,USA,840,6065,Riverside,California,California Riverside,33.7431498,-115.99336,"Riverside, California, US",0.00,0.00,0.00,0.00,0.00,0.00,0.00,0.00,0.00,0.00,0.00,0.00,0.00,0.00,0.00,0.00,0.00,0.00,0.00,0.00,0.00,0.00,0.00,0.00,0.00,0.00,0.00,0.00,0.00,0.00,0.00,0.00,0.00,0.00,0.00,0.00,0.00,0.00,0.00,0.00,0.00,0.00,0.00,0.00,0.00,0.00,0.04,0.04,0.16,0.24,0.33,0.33,0.57,0.57,0.61,0.61,0.65,0.90,1.14,1.14,1.18,1.88,2.33,2.77,4.28,6.08,7.47,7.96,11.87,15.14,15.14,20.11
84006067,US,USA,840,6067,Sacramento,California,California Sacramento,38.4510683,-121.34254,"Sacramento, California, US",0.00,0.00,0.00,0.00,0.00,0.00,0.00,0.00,0.00,0.00,0.00,0.00,0.00,0.00,0.00,0.00,0.00,0.00,0.00,0.00,0.00,0.00,0.00,0.00,0.00,0.00,0.00,0.00,0.00,0.00,0.06,0.06,0.06,0.06,0.06,0.06,0.13,0.13,0.13,0.13,0.13,0.13,0.13,0.13,0.13,0.13,0.13,0.13,0.65,0.71,1.10,1.10,1.88,1.88,2.14,2.60,2.60,2.92,3.44,3.44,3.44,5.71,5.71,7.33,7.33,10.64,10.64,10.64,14.54,14.54,14.54,20.38
84006071,US,USA,840,6071,San Bernardino,California,California San Bernardino,34.8406031,-116.17747,"San Bernardino, California, US",0.00,0.00,0.00,0.00,0.00,0.00,0.00,0.00,0.00,0.00,0.00,0.00,0.00,0.00,0.00,0.00,0.00,0.00,0.00,0.00,0.00,0.00,0.00,0.00,0.00,0.00,0.00,0.00,0.00,0.00,0.00,0.00,0.00,0.00,0.00,0.00,0.00,0.00,0.00,0.00,0.00,0.00,0.00,0.00,0.00,0.00,0.00,0.00,0.00,0.00,0.00,0.00,0.00,0.00,0.05,0.09,0.14,0.23,0.41,0.46,0.78,0.78,1.43,1.75,2.49,2.49,3.50,3.50,5.11,5.76,8.43,11.69
84006073,US,USA,840,6073,San Diego,California,California San Diego,33.034846,-116.73653,"San Diego, California, US",0.00,0.00,0.00,0.00,0.00,0.00,0.00,0.00,0.00,0.00,0.00,0.00,0.00,0.00,0.00,0.00,0.00,0.00,0.00,0.00,0.03,0.03,0.06,0.06,0.06,0.06,0.06,0.06,0.06,0.06,0.06,0.06,0.06,0.06,0.06,0.06,0.06,0.06,0.06,0.06,0.06,0.06,0.06,0.09,0.09,0.09,0.09,0.09,0.09,0.09,0.15,0.24,0.30,0.48,1.65,1.65,1.79,2.39,3.80,3.80,4.64,6.01,6.76,7.12,8.76,10.20,12.35,14.48,15.41,18.04,21.93,25.40
84006075,US,USA,840,6075,San Francisco,California,California San Francisco,37.7521511,-122.43857,"San Francisco, California, US",0.00,0.00,0.00,0.00,0.00,0.00,0.00,0.00,0.00,0.00,0.00,0.00,0.00,0.00,0.00,0.00,0.00,0.00,0.00,0.00,0.00,0.00,0.00,0.00,0.00,0.00,0.00,0.00,0.00,0.00,0.00,0.00,0.00,0.00,0.00,0.00,0.00,0.00,0.00,0.00,0.00,0.00,0.00,0.23,0.23,1.02,1.02,1.02,1.59,1.59,2.04,2.60,3.17,3.17,4.53,4.87,5.78,7.93,8.61,9.51,12.23,14.84,17.21,20.16,25.25,31.60,34.88,38.51,42.36,44.96,49.15,50.96
84006085,US,USA,840,6085,Santa Clara,California,California Santa Clara,37.2310491,-121.69705,"Santa Clara, California, US",0.00,0.00,0.00,0.00,0.00,0.00,0.00,0.00,0.00,0.05,0.05,0.05,0.10,0.10,0.10,0.10,0.10,0.10,0.10,0.10,0.10,0.10,0.10,0.10,0.10,0.10,0.10,0.10,0.10,0.10,0.10,0.10,0.10,0.10,0.10,0.10,0.10,0.10,0.15,0.15,0.46,0.57,0.57,1.03,1.03,1.65,1.96,1.96,2.22,2.48,2.68,4.08,4.90,4.70,7.12,8.00,9.03,9.75,10.11,13.57,13.57,15.58,19.35,23.68,27.97,29.62,30.50,33.33,43.76,45.92,49.33,52.58
84009001,US,USA,840,9001,Fairfield,Connecticut,Connecticut Fairfield,41.268099,-73.388117,"Fairfield, Connecticut, US",0.00,0.00,0.00,0.00,0.00,0.00,0.00,0.00,0.00,0.00,0.00,0.00,0.00,0.00,0.00,0.00,0.00,0.00,0.00,0.00,0.00,0.00,0.00,0.00,0.00,0.00,0.00,0.00,0.00,0.00,0.00,0.00,0.00,0.00,0.00,0.00,0.00,0.00,0.00,0.00,0.00,0.00,0.00,0.00,0.00,0.00,0.00,0.00,0.11,0.21,0.42,0.85,1.59,1.59,3.07,5.08,7.31,10.81,12.92,12.92,22.03,28.60,40.68,57.84,64.30,79.66,96.19,131.89,153.07,198.09,210.38,225.85
84009003,US,USA,840,9003,Hartford,Connecticut,Connecticut Hartford,41.8028301,-72.731039,"Hartford, Connecticut, US",0.00,0.00,0.00,0.00,0.00,0.00,0.00,0.00,0.00,0.00,0.00,0.00,0.00,0.00,0.00,0.00,0.00,0.00,0.00,0.00,0.00,0.00,0.00,0.00,0.00,0.00,0.00,0.00,0.00,0.00,0.00,0.00,0.00,0.00,0.00,0.00,0.00,0.00,0.00,0.00,0.00,0.00,0.00,0.00,0.00,0.00,0.00,0.00,0.00,0.00,0.00,0.00,0.00,0.00,0.00,0.00,0.00,0.00,0.00,0.00,0.00,0.00,0.00,0.00,0.11,0.00,0.00,0.00,0.00,0.00,0.00,0.11
84012011,US,USA,840,12011,Broward,Florida,Florida Broward,26.1518465,-80.487256,"Broward, Florida, US",0.00,0.00,0.00,0.00,0.00,0.00,0.00,0.00,0.00,0.00,0.00,0.00,0.00,0.00,0.00,0.00,0.00,0.00,0.00,0.00,0.00,0.00,0.00,0.00,0.00,0.00,0.00,0.00,0.00,0.00,0.00,0.00,0.00,0.00,0.00,0.00,0.00,0.00,0.00,0.00,0.00,0.00,0.00,0.00,0.00,0.10,0.10,0.15,0.21,0.21,0.36,0.56,1.03,1.85,1.85,2.46,3.69,4.92,6.56,8.41,11.12,13.48,15.94,18.20,25.83,31.47,41.72,42.95,59.05,62.48,63.15,75.91
84012031,US,USA,840,12031,Duval,Florida,Florida Duval,30.3322588,-81.669765,"Duval, Florida, US",0.00,0.00,0.00,0.00,0.00,0.00,0.00,0.00,0.00,0.00,0.00,0.00,0.00,0.00,0.00,0.00,0.00,0.00,0.00,0.00,0.00,0.00,0.00,0.00,0.00,0.00,0.00,0.00,0.00,0.00,0.00,0.00,0.00,0.00,0.00,0.00,0.00,0.00,0.00,0.00,0.00,0.00,0.00,0.00,0.00,0.00,0.00,0.00,0.00,0.00,0.00,0.11,0.11,0.42,0.42,1.05,1.37,1.58,1.79,2.63,4.11,5.26,5.26,5.89,7.79,9.47,12.11,13.16,16.63,21.79,22.95,30.11
84012057,US,USA,840,12057,Hillsborough,Florida,Florida Hillsborough,27.9276559,-82.320132,"Hillsborough, Florida, US",0.00,0.00,0.00,0.00,0.00,0.00,0.00,0.00,0.00,0.00,0.00,0.00,0.00,0.00,0.00,0.00,0.00,0.00,0.00,0.00,0.00,0.00,0.00,0.00,0.00,0.00,0.00,0.00,0.00,0.00,0.00,0.00,0.00,0.00,0.00,0.00,0.00,0.00,0.00,0.00,0.07,0.14,0.14,0.14,0.14,0.14,0.14,0.14,0.14,0.21,0.14,0.21,0.14,0.28,0.28,0.49,0.97,1.39,2.23,3.27,4.04,5.22,6.33,7.38,9.88,11.62,13.57,15.17,17.61,21.22,21.50,28.11
84012086,US,USA,840,12086,Miami-Dade,Florida,Florida Miami-Dade,25.6112362,-80.551706,"Miami-Dade, Florida, US",0.00,0.00,0.00,0.00,0.00,0.00,0.00,0.00,0.00,0.00,0.00,0.00,0.00,0.00,0.00,0.00,0.00,0.00,0.00,0.00,0.00,0.00,0.00,0.00,0.00,0.00,0.00,0.00,0.00,0.00,0.00,0.00,0.00,0.00,0.00,0.00,0.00,0.00,0.00,0.00,0.00,0.00,0.00,0.00,0.00,0.00,0.00,0.00,0.00,0.00,0.04,0.07,0.29,0.47,0.47,1.45,2.75,0.00,0.00,6.12,8.22,10.07,12.24,14.48,22.30,27.62,36.31,43.16,59.09,76.86,79.72,104.49
84012095,US,USA,840,12095,Orange,Florida,Florida Orange,28.5136762,-81.317995,"Orange, Florida, US",0.00,0.00,0.00,0.00,0.00,0.00,0.00,0.00,0.00,0.00,0.00,0.00,0.00,0.00,0.00,0.00,0.00,0.00,0.00,0.00,0.00,0.00,0.00,0.00,0.00,0.00,0.00,0.00,0.00,0.00,0.00,0.00,0.00,0.00,0.00,0.00,0.00,0.00,0.00,0.00,0.00,0.00,0.00,0.00,0.00,0.00,0.00,0.00,0.00,0.00,0.00,0.00,0.07,0.14,0.14,0.43,0.65,1.38,1.67,2.10,2.39,3.48,3.62,5.58,7.97,11.30,14.92,17.81,21.22,27.01,28.39,39.17
84012099,US,USA,840,12099,Palm Beach,Florida,Florida Palm Beach,26.6467627,-80.46536,"Palm Beach, Florida, US",0.00,0.00,0.00,0.00,0.00,0.00,0.00,0.00,0.00,0.00,0.00,0.00,0.00,0.00,0.00,0.00,0.00,0.00,0.00,0.00,0.00,0.00,0.00,0.00,0.00,0.00,0.00,0.00,0.00,0.00,0.00,0.00,0.00,0.00,0.00,0.00,0.00,0.00,0.00,0.00,0.00,0.00,0.00,0.00,0.00,0.00,0.00,0.00,0.00,0.00,0.00,0.13,0.34,0.34,0.34,0.87,1.28,1.95,2.83,3.77,4.85,5.99,6.80,7.94,11.37,13.06,19.65,22.41,28.47,37.08,38.16,49.60
84012103,US,USA,840,12103,Pinellas,Florida,Florida Pinellas,27.9313035,-82.722397,"Pinellas, Florida, US",0.00,0.00,0.00,0.00,0.00,0.00,0.00,0.00,0.00,0.00,0.00,0.00,0.00,0.00,0.00,0.00,0.00,0.00,0.00,0.00,0.00,0.00,0.00,0.00,0.00,0.00,0.00,0.00,0.00,0.00,0.00,0.00,0.00,0.00,0.00,0.00,0.00,0.00,0.00,0.00,0.00,0.00,0.00,0.00,0.00,0.00,0.00,0.00,0.00,0.21,0.21,0.21,0.21,0.21,0.21,0.41,1.03,1.64,2.26,2.97,3.90,4.21,4.62,5.13,6.56,7.90,9.64,11.59,12.92,17.13,17.44,28.00
84013121,US,USA,840,13121,Fulton,Georgia,Georgia Fulton,33.7921694,-84.463194,"Fulton, Georgia, US",0.00,0.00,0.00,0.00,0.00,0.00,0.00,0.00,0.00,0.00,0.00,0.00,0.00,0.00,0.00,0.00,0.00,0.00,0.00,0.00,0.00,0.00,0.00,0.00,0.00,0.00,0.00,0.00,0.00,0.00,0.00,0.00,0.00,0.00,0.00,0.00,0.00,0.00,0.00,0.00,0.00,0.19,0.19,0.19,0.19,0.29,0.29,0.48,0.48,0.67,0.57,0.76,1.24,1.90,2.57,3.14,4.67,6.29,8.38,9.43,10.57,13.81,17.52,18.86,20.10,29.24,35.52,38.76,44.10,54.29,59.43,67.81
84013135,US,USA,840,13135,Gwinnett,Georgia,Georgia Gwinnett,33.960442,-84.021378,"Gwinnett, Georgia, US",0.00,0.00,0.00,0.00,0.00,0.00,0.00,0.00,0.00,0.00,0.00,0.00,0.00,0.00,0.00,0.00,0.00,0.00,0.00,0.00,0.00,0.00,0.00,0.00,0.00,0.00,0.00,0.00,0.00,0.00,0.00,0.00,0.00,0.00,0.00,0.00,0.00,0.00,0.00,0.00,0.00,0.00,0.00,0.00,0.00,0.00,0.00,0.00,0.22,0.22,0.22,0.22,0.22,0.43,0.54,0.75,0.75,1.29,2.48,2.48,2.91,3.66,4.85,5.17,8.08,10.99,13.90,15.41,17.03,25.65,26.94,30.39
84015003,US,USA,840,15003,Honolulu,Hawaii,Hawaii Honolulu,21.4580317,-157.97122,"Honolulu, Hawaii, US",0.00,0.00,0.00,0.00,0.00,0.00,0.00,0.00,0.00,0.00,0.00,0.00,0.00,0.00,0.00,0.00,0.00,0.00,0.00,0.00,0.00,0.00,0.00,0.00,0.00,0.00,0.00,0.00,0.00,0.00,0.00,0.00,0.00,0.00,0.00,0.00,0.00,0.00,0.00,0.00,0.00,0.00,0.00,0.00,0.00,0.10,0.10,0.10,0.20,0.20,0.20,0.20,0.20,0.31,0.51,0.61,1.02,1.02,2.86,2.86,4.18,4.18,5.92,5.92,6.94,7.76,11.02,11.02,12.55,14.18,16.02,18.57
84017031,US,USA,840,17031,Cook,Illinois,Illinois Cook,41.8414485,-87.816588,"Cook, Illinois, US",0.00,0.00,0.02,0.02,0.02,0.02,0.02,0.02,0.02,0.04,0.04,0.04,0.04,0.04,0.04,0.04,0.04,0.04,0.04,0.04,0.04,0.04,0.04,0.04,0.04,0.04,0.04,0.04,0.04,0.04,0.04,0.04,0.04,0.04,0.04,0.04,0.04,0.04,0.04,0.06,0.08,0.08,0.08,0.10,0.10,0.12,0.14,0.14,0.21,0.42,0.52,0.77,0.97,0.97,1.20,2.07,3.44,5.37,5.37,10.58,15.54,17.80,23.05,27.37,27.37,43.22,50.44,66.51,71.95,86.80,99.46,107.63
84017043,US,USA,840,17043,DuPage,Illinois,Illinois DuPage,41.8511697,-88.086427,"DuPage, Illinois, US",0.00,0.00,0.00,0.00,0.00,0.00,0.00,0.00,0.00,0.00,0.00,0.00,0.00,0.00,0.00,0.00,0.00,0.00,0.00,0.00,0.00,0.00,0.00,0.00,0.00,0.00,0.00,0.00,0.00,0.00,0.00,0.00,0.00,0.00,0.00,0.00,0.00,0.00,0.00,0.00,0.00,0.00,0.00,0.00,0.00,0.00,0.00,0.00,0.00,0.00,0.00,0.00,0.11,0.11,0.11,2.80,4.84,5.81,5.81,7.00,8.50,10.23,11.09,14.10,14.10,21.42,21.74,29.49,34.45,38.32,42.20,48.22
84018097,US,USA,840,18097,Marion,Indiana,Indiana Marion,39.7816362,-86.138263,"Marion, Indiana, US",0.00,0.00,0.00,0.00,0.00,0.00,0.00,0.00,0.00,0.00,0.00,0.00,0.00,0.00,0.00,0.00,0.00,0.00,0.00,0.00,0.00,0.00,0.00,0.00,0.00,0.00,0.00,0.00,0.00,0.00,0.00,0.00,0.00,0.00,0.00,0.00,0.00,0.00,0.00,0.00,0.00,0.00,0.00,0.00,0.10,0.10,0.10,0.10,0.10,0.10,0.21,0.21,0.31,0.63,0.73,0.94,1.15,1.99,2.62,4.82,8.59,8.59,16.86,23.66,30.68,50.68,61.15,70.79,84.19,100.94,116.96,136.54
84024031,US,USA,840,24031,Montgomery,Maryland,Maryland Montgomery,39.1367633,-77.203582,"Montgomery, Maryland, US",0.00,0.00,0.00,0.00,0.00,0.00,0.00,0.00,0.00,0.00,0.00,0.00,0.00,0.00,0.00,0.00,0.00,0.00,0.00,0.00,0.00,0.00,0.00,0.00,0.00,0.00,0.00,0.00,0.00,0.00,0.00,0.00,0.00,0.00,0.00,0.00,0.00,0.00,0.00,0.00,0.00,0.00,0.00,0.00,0.28,0.28,0.38,0.38,0.38,0.47,0.57,0.57,0.57,0.66,1.42,2.28,2.94,3.13,4.84,6.46,7.88,8.93,10.16,12.06,15.57,19.75,24.22,28.58,32.38,36.85,42.45,47.29
84024033,US,USA,840,24033,Prince George's,Maryland,Maryland Prince George's,38.8307004,-76.849644,"Prince George's, Maryland, US",0.00,0.00,0.00,0.00,0.00,0.00,0.00,0.00,0.00,0.00,0.00,0.00,0.00,0.00,0.00,0.00,0.00,0.00,0.00,0.00,0.00,0.00,0.00,0.00,0.00,0.00,0.00,0.00,0.00,0.00,0.00,0.00,0.00,0.00,0.00,0.00,0.00,0.00,0.00,0.00,0.00,0.00,0.00,0.00,0.00,0.00,0.00,0.00,0.33,0.33,0.44,0.66,0.77,0.77,1.10,1.54,2.20,2.53,3.41,3.96,4.40,5.17,6.93,8.36,11.11,16.28,21.56,27.17,32.34,37.51,44.33,52.04
84025017,US,USA,840,25017,Middlesex,Massachusetts,Massachusetts Middlesex,42.4860773,-71.390492,"Middlesex, Massachusetts, US",0.00,0.00,0.00,0.00,0.00,0.00,0.00,0.00,0.00,0.00,0.00,0.00,0.00,0.00,0.00,0.00,0.00,0.00,0.00,0.00,0.00,0.00,0.00,0.00,0.00,0.00,0.00,0.00,0.00,0.00,0.00,0.00,0.00,0.00,0.00,0.00,0.00,0.00,0.00,0.00,0.00,0.00,0.00,0.00,0.06,0.06,0.43,0.43,0.93,2.54,3.03,3.72,4.02,4.02,5.14,5.51,6.19,7.37,8.92,10.96,12.32,14.37,18.82,27.62,33.31,42.41,52.14,60.74,70.65,82.97,97.96,115.79
84026099,US,USA,840,26099,Macomb,Michigan,Michigan Macomb,42.6915836,-82.927528,"Macomb, Michigan, US",0.00,0.00,0.00,0.00,0.00,0.00,0.00,0.00,0.00,0.00,0.00,0.00,0.00,0.00,0.00,0.00,0.00,0.00,0.00,0.00,0.00,0.00,0.00,0.00,0.00,0.00,0.00,0.00,0.00,0.00,0.00,0.00,0.00,0.00,0.00,0.00,0.00,0.00,0.00,0.00,0.00,0.00,0.00,0.00,0.00,0.00,0.00,0.00,0.00,0.00,0.00,0.00,0.11,0.23,0.69,0.91,1.14,6.29,9.83,11.54,16.00,20.00,25.71,32.11,39.66,46.17,61.03,70.86,83.20,97.49,124.34,152.23
84026125,US,USA,840,26125,Oakland,Michigan,Michigan Oakland,42.6609011,-83.385954,"Oakland, Michigan, US",0.00,0.00,0.00,0.00,0.00,0.00,0.00,0.00,0.00,0.00,0.00,0.00,0.00,0.00,0.00,0.00,0.00,0.00,0.00,0.00,0.00,0.00,0.00,0.00,0.00,0.00,0.00,0.00,0.00,0.00,0.00,0.00,0.00,0.00,0.00,0.00,0.00,0.00,0.00,0.00,0.00,0.00,0.00,0.00,0.00,0.00,0.00,0.00,0.00,0.08,0.08,0.24,0.48,0.71,1.11,1.27,4.69,8.34,14.61,18.27,22.00,26.13,34.00,43.13,53.06,65.45,80.86,92.93,108.42,126.37,151.71,173.39
84026163,US,USA,840,26163,Wayne,Michigan,Michigan Wayne,42.2809841,-83.281255,"Wayne, Michigan, US",0.00,0.00,0.00,0.00,0.00,0.00,0.00,0.00,0.00,0.00,0.00,0.00,0.00,0.00,0.00,0.00,0.00,0.00,0.00,0.00,0.00,0.00,0.00,0.00,0.00,0.00,0.00,0.00,0.00,0.00,0.00,0.00,0.00,0.00,0.00,0.00,0.00,0.00,0.00,0.00,0.00,0.00,0.00,0.00,0.00,0.00,0.00,0.00,0.00,0.06,0.06,0.11,0.34,0.46,0.80,0.80,1.31,2.51,3.82,5.82,27.19,36.37,49.94,63.97,79.19,103.19,132.04,154.16,182.16,212.94,254.85,289.00
84027053,US,USA,840,27053,Hennepin,Minnesota,Minnesota Hennepin,45.0076152,-93.476949,"Hennepin, Minnesota, US",0.00,0.00,0.00,0.00,0.00,0.00,0.00,0.00,0.00,0.00,0.00,0.00,0.00,0.00,0.00,0.00,0.00,0.00,0.00,0.00,0.00,0.00,0.00,0.00,0.00,0.00,0.00,0.00,0.00,0.00,0.00,0.00,0.00,0.00,0.00,0.00,0.00,0.00,0.00,0.00,0.00,0.00,0.00,0.00,0.00,0.00,0.00,0.00,0.00,0.00,0.08,0.08,0.48,0.48,1.75,1.91,2.22,2.54,3.57,4.13,4.53,7.07,8.18,8.82,10.17,11.20,12.07,13.58,15.09,16.20,17.32,18.67
84029189,US,USA,840,29189,St. Louis,Missouri,Missouri St. Louis,38.6377004,-90.445838,"St. Louis, Missouri, US",0.00,0.00,0.00,0.00,0.00,0.00,0.00,0.00,0.00,0.00,0.00,0.00,0.00,0.00,0.00,0.00,0.00,0.00,0.00,0.00,0.00,0.00,0.00,0.00,0.00,0.00,0.00,0.00,0.00,0.00,0.00,0.00,0.00,0.00,0.00,0.00,0.00,0.00,0.00,0.00,0.00,0.00,0.00,0.00,0.00,0.00,0.10,0.10,0.10,0.10,0.20,0.20,0.20,0.20,0.20,0.30,0.40,0.80,1.00,1.71,2.21,6.92,10.03,12.94,17.35,24.77,31.39,33.70,36.71,49.35,60.68,71.41
84032003,US,USA,840,32003,Clark,Nevada,Nevada Clark,36.2145886,-115.01302,"Clark, Nevada, US",0.00,0.00,0.00,0.00,0.00,0.00,0.00,0.00,0.00,0.00,0.00,0.00,0.00,0.00,0.00,0.00,0.00,0.00,0.00,0.00,0.00,0.00,0.00,0.00,0.00,0.00,0.00,0.00,0.00,0.00,0.00,0.00,0.00,0.00,0.00,0.00,0.00,0.00,0.00,0.00,0.00,0.00,0.00,0.00,0.00,0.00,0.00,0.00,0.00,0.00,0.00,0.00,0.00,0.00,0.00,0.00,0.00,0.00,0.07,0.07,0.07,0.07,0.07,0.07,0.07,0.07,0.07,0.07,0.07,0.07,0.07,0.07
84034003,US,USA,840,34003,Bergen,New Jersey,New Jersey Bergen,40.9601092,-74.071643,"Bergen, New Jersey, US",0.00,0.00,0.00,0.00,0.00,0.00,0.00,0.00,0.00,0.00,0.00,0.00,0.00,0.00,0.00,0.00,0.00,0.00,0.00,0.00,0.00,0.00,0.00,0.00,0.00,0.00,0.00,0.00,0.00,0.00,0.00,0.00,0.00,0.00,0.00,0.00,0.00,0.00,0.00,0.00,0.00,0.00,0.00,0.00,0.00,0.00,0.00,0.00,0.00,0.00,0.00,0.00,0.00,0.00,0.00,0.00,0.00,0.00,0.00,0.00,0.00,0.00,0.00,0.00,0.00,0.00,0.00,0.00,0.00,0.00,0.00,0.00
84036005,US,USA,840,36005,Bronx,New York,New York Bronx,40.852093,-73.862828,"Bronx, New York, US",0.00,0.00,0.00,0.00,0.00,0.00,0.00,0.00,0.00,0.00,0.00,0.00,0.00,0.00,0.00,0.00,0.00,0.00,0.00,0.00,0.00,0.00,0.00,0.00,0.00,0.00,0.00,0.00,0.00,0.00,0.00,0.00,0.00,0.00,0.00,0.00,0.00,0.00,0.00,0.00,0.00,0.00,0.00,0.00,0.00,0.00,0.00,0.00,0.00,0.00,0.00,0.00,0.00,0.00,0.00,0.00,0.00,0.00,0.00,0.00,0.00,0.00,0.00,0.00,0.00,0.00,0.00,0.00,0.00,0.00,0.00,0.00
84036029,US,USA,840,36029,Erie,New York,New York Erie,42.7624902,-78.730637,"Erie, New York, US",0.00,0.00,0.00,0.00,0.00,0.00,0.00,0.00,0.00,0.00,0.00,0.00,0.00,0.00,0.00,0.00,0.00,0.00,0.00,0.00,0.00,0.00,0.00,0.00,0.00,0.00,0.00,0.00,0.00,0.00,0.00,0.00,0.00,0.00,0.00,0.00,0.00,0.00,0.00,0.00,0.00,0.00,0.00,0.00,0.00,0.00,0.00,0.00,0.00,0.00,0.00,0.00,0.33,0.33,0.76,1.20,2.17,3.04,5.11,5.43,6.09,9.46,12.39,13.26,22.39,26.63,34.57,45.00,48.15,54.24,63.26,67.07
84036047,US,USA,840,36047,Kings,New York,New York Kings,40.6361825,-73.949356,"Kings, New York, US",0.00,0.00,0.00,0.00,0.00,0.00,0.00,0.00,0.00,0.00,0.00,0.00,0.00,0.00,0.00,0.00,0.00,0.00,0.00,0.00,0.00,0.00,0.00,0.00,0.00,0.00,0.00,0.00,0.00,0.00,0.00,0.00,0.00,0.00,0.00,0.00,0.00,0.00,0.00,0.00,0.00,0.00,0.00,0.00,0.00,0.00,0.00,0.00,0.00,0.00,0.00,0.00,0.00,0.00,0.00,0.00,0.00,0.00,0.00,0.00,0.00,0.00,0.00,0.00,0.00,0.00,0.00,0.00,0.00,0.00,0.00,0.00
84036059,US,USA,840,36059,Nassau,New York,New York Nassau,40.7406652,-73.589419,"Nassau, New York, US",0.00,0.00,0.00,0.00,0.00,0.00,0.00,0.00,0.00,0.00,0.00,0.00,0.00,0.00,0.00,0.00,0.00,0.00,0.00,0.00,0.00,0.00,0.00,0.00,0.00,0.00,0.00,0.00,0.00,0.00,0.00,0.00,0.00,0.00,0.00,0.00,0.00,0.00,0.00,0.00,0.00,0.00,0.00,0.00,0.00,0.00,0.00,0.00,0.00,0.00,0.00,0.00,0.00,0.00,0.00,0.00,0.00,0.00,0.00,0.00,0.00,0.00,0.00,0.00,0.09,0.09,0.09,0.09,0.09,0.09,0.09,0.18
84036061,US,USA,840,36061,New York,New York,New York New York,40.7672726,-73.971526,"New York City, New York, US",0.00,0.00,0.00,0.00,0.00,0.00,0.00,0.00,0.00,0.00,0.00,0.00,0.00,0.00,0.00,0.00,0.00,0.00,0.00,0.00,0.00,0.00,0.00,0.00,0.00,0.00,0.00,0.00,0.00,0.00,0.00,0.00,0.00,0.00,0.00,0.00,0.00,0.00,0.00,0.00,0.06,0.06,0.06,0.25,0.68,0.68,0.74,1.17,1.53,3.38,5.83,9.45,16.51,16.51,28.42,49.97,114.86,242.73,316.21,462.25,592.63,755.37,914.92,1096.13,1342.73,1569.86,1827.87,2072.93,2299.14,2646.96,2912.15,3180.42
84036081,US,USA,840,36081,Queens,New York,New York Queens,40.7108812,-73.816847,"Queens, New York, US",0.00,0.00,0.00,0.00,0.00,0.00,0.00,0.00,0.00,0.00,0.00,0.00,0.00,0.00,0.00,0.00,0.00,0.00,0.00,0.00,0.00,0.00,0.00,0.00,0.00,0.00,0.00,0.00,0.00,0.00,0.00,0.00,0.00,0.00,0.00,0.00,0.00,0.00,0.00,0.00,0.00,0.00,0.00,0.00,0.00,0.00,0.00,0.00,0.00,0.00,0.00,0.00,0.00,0.00,0.00,0.00,0.00,0.00,0.00,0.00,0.00,0.00,0.00,0.00,0.00,0.00,0.00,0.00,0.00,0.00,0.00,0.00
84036103,US,USA,840,36103,Suffolk,New York,New York Suffolk,40.8832012,-72.801217,"Suffolk, New York, US",0.00,0.00,0.00,0.00,0.00,0.00,0.00,0.00,0.00,0.00,0.00,0.00,0.00,0.00,0.00,0.00,0.00,0.00,0.00,0.00,0.00,0.00,0.00,0.00,0.00,0.00,0.00,0.00,0.00,0.00,0.00,0.00,0.00,0.00,0.00,0.00,0.00,0.00,0.00,0.00,0.00,0.00,0.00,0.00,0.00,0.00,0.07,0.07,0.07,0.41,1.35,1.89,2.23,2.77,5.00,6.55,7.83,16.14,30.99,44.70,69.82,98.45,126.94,152.60,184.67,228.56,279.41,339.16,391.02,453.27,513.50,590.55
84036119,US,USA,840,36119,Westchester,New York,New York Westchester,41.1627838,-73.757417,"Westchester, New York, US",0.00,0.00,0.00,0.00,0.00,0.00,0.00,0.00,0.00,0.00,0.00,0.00,0.00,0.00,0.00,0.00,0.00,0.00,0.00,0.00,0.00,0.00,0.00,0.00,0.00,0.00,0.00,0.00,0.00,0.00,0.00,0.00,0.00,0.00,0.00,0.00,0.00,0.00,0.00,0.00,0.00,0.10,1.03,1.86,1.96,5.89,8.57,10.12,10.12,12.50,15.29,16.32,17.77,18.39,22.73,39.26,55.58,82.44,112.71,143.29,193.49,298.97,401.96,484.61,614.05,742.46,813.53,880.06,963.43,1029.65,1103.62,1194.94
84037119,US,USA,840,37119,Mecklenburg,North Carolina,North Carolina Mecklenburg,35.2446927,-80.831767,"Mecklenburg, North Carolina, US",0.00,0.00,0.00,0.00,0.00,0.00,0.00,0.00,0.00,0.00,0.00,0.00,0.00,0.00,0.00,0.00,0.00,0.00,0.00,0.00,0.00,0.00,0.00,0.00,0.00,0.00,0.00,0.00,0.00,0.00,0.00,0.00,0.00,0.00,0.00,0.00,0.00,0.00,0.00,0.00,0.00,0.00,0.00,0.00,0.00,0.00,0.00,0.00,0.00,0.00,0.18,0.09,0.18,0.37,0.64,1.01,1.28,2.74,3.93,7.04,7.04,8.87,12.98,15.54,18.65,23.67,27.33,30.71,34.92,38.39,40.59,48.72
84037183,US,USA,840,37183,Wake,North Carolina,North Carolina Wake,35.7887927,-78.652492,"Wake, North Carolina, US",0.00,0.00,0.00,0.00,0.00,0.00,0.00,0.00,0.00,0.00,0.00,0.00,0.00,0.00,0.00,0.00,0.00,0.00,0.00,0.00,0.00,0.00,0.00,0.00,0.00,0.00,0.00,0.00,0.00,0.00,0.00,0.00,0.00,0.00,0.00,0.00,0.00,0.00,0.00,0.00,0.00,0.09,0.09,0.09,0.09,0.09,0.09,0.09,0.55,0.55,0.64,0.73,1.01,1.28,1.37,1.37,2.01,2.29,2.93,2.93,4.76,4.76,6.04,6.68,9.16,11.26,11.26,13.37,15.20,17.67,19.51,22.99
84039035,US,USA,840,39035,Cuyahoga,Ohio,Ohio Cuyahoga,41.424119,-81.659183,"Cuyahoga, Ohio, US",0.00,0.00,0.00,0.00,0.00,0.00,0.00,0.00,0.00,0.00,0.00,0.00,0.00,0.00,0.00,0.00,0.00,0.00,0.00,0.00,0.00,0.00,0.00,0.00,0.00,0.00,0.00,0.00,0.00,0.00,0.00,0.00,0.00,0.00,0.00,0.00,0.00,0.00,0.00,0.00,0.00,0.00,0.00,0.00,0.00,0.00,0.00,0.00,0.24,0.24,0.24,0.48,0.88,0.88,1.93,2.49,3.05,4.26,5.55,7.40,10.05,11.98,13.42,16.56,20.82,26.53,29.74,35.37,39.63,42.36,47.35,53.30
84039049,US,USA,840,39049,Franklin,Ohio,Ohio Franklin,39.9699582,-83.011158,"Franklin, Ohio, US",0.00,0.00,0.00,0.00,0.00,0.00,0.00,0.00,0.00,0.00,0.00,0.00,0.00,0.00,0.00,0.00,0.00,0.00,0.00,0.00,0.00,0.00,0.00,0.00,0.00,0.00,0.00,0.00,0.00,0.00,0.00,0.00,0.00,0.00,0.00,0.00,0.00,0.00,0.00,0.00,0.00,0.00,0.00,0.00,0.00,0.00,0.00,0.00,0.00,0.00,0.00,0.00,0.08,0.23,0.23,0.31,0.53,0.76,1.07,1.60,2.60,3.36,5.73,6.72,8.32,11.60,16.95,18.85,21.45,24.81,29.85,33.66
84042003,US,USA,840,42003,Allegheny,Pennsylvania,Pennsylvania Allegheny,40.4680988,-79.981677,"Allegheny, Pennsylvania, US",0.00,0.00,0.00,0.00,0.00,0.00,0.00,0.00,0.00,0.00,0.00,0.00,0.00,0.00,0.00,0.00,0.00,0.00,0.00,0.00,0.00,0.00,0.00,0.00,0.00,0.00,0.00,0.00,0.00,0.00,0.00,0.00,0.00,0.00,0.00,0.00,0.00,0.00,0.00,0.00,0.00,0.00,0.00,0.00,0.00,0.00,0.00,0.00,0.00,0.00,0.00,0.00,0.16,0.16,0.49,0.82,1.07,1.48,2.30,2.55,3.28,3.94,4.76,7.22,10.92,12.97,17.98,21.76,23.81,26.68,29.23,34.40
84042101,US,USA,840,42101,Philadelphia,Pennsylvania,Pennsylvania Philadelphia,40.0033851,-75.137927,"Philadelphia, Pennsylvania, US",0.00,0.00,0.00,0.00,0.00,0.00,0.00,0.00,0.00,0.00,0.00,0.00,0.00,0.00,0.00,0.00,0.00,0.00,0.00,0.00,0.00,0.00,0.00,0.00,0.00,0.00,0.00,0.00,0.00,0.00,0.00,0.00,0.00,0.00,0.00,0.00,0.00,0.00,0.00,0.00,0.00,0.00,0.00,0.00,0.00,0.00,0.00,0.00,0.06,0.06,0.06,0.19,0.25,0.25,0.63,1.20,2.15,2.78,4.23,5.37,6.06,11.05,15.91,21.59,29.99,40.21,50.69,56.19,67.68,83.02,105.74,132.58
84047157,US,USA,840,47157,Shelby,Tennessee,Tennessee Shelby,35.1864775,-89.896924,"Shelby, Tennessee, US",0.00,0.00,0.00,0.00,0.00,0.00,0.00,0.00,0.00,0.00,0.00,0.00,0.00,0.00,0.00,0.00,0.00,0.00,0.00,0.00,0.00,0.00,0.00,0.00,0.00,0.00,0.00,0.00,0.00,0.00,0.00,0.00,0.00,0.00,0.00,0.00,0.00,0.00,0.00,0.00,0.00,0.00,0.00,0.00,0.00,0.00,0.11,0.11,0.11,0.11,0.21,0.21,0.21,0.21,0.21,0.32,0.43,1.07,0.43,4.49,7.05,9.94,14.42,18.16,21.15,23.82,29.38,38.68,42.31,45.73,52.99,68.16
84049035,US,USA,840,49035,Salt Lake,Utah,Utah Salt Lake,40.6661653,-111.9216,"Salt Lake, Utah, US",0.00,0.00,0.00,0.00,0.00,0.00,0.00,0.00,0.00,0.00,0.00,0.00,0.00,0.00,0.00,0.00,0.00,0.00,0.00,0.00,0.00,0.00,0.00,0.00,0.00,0.00,0.00,0.00,0.00,0.00,0.00,0.00,0.00,0.00,0.00,0.00,0.00,0.00,0.00,0.00,0.00,0.00,0.00,0.00,0.00,0.00,0.00,0.00,0.00,0.00,0.00,0.09,0.09,1.21,1.39,1.73,1.91,2.52,3.82,4.94,6.94,9.45,10.75,13.10,15.44,18.91,23.94,27.84,31.22,34.35,34.35,41.28
84051059,US,USA,840,51059,Fairfax,Virginia,Virginia Fairfax,38.8367756,-77.275658,"Fairfax, Virginia, US",0.00,0.00,0.00,0.00,0.00,0.00,0.00,0.00,0.00,0.00,0.00,0.00,0.00,0.00,0.00,0.00,0.00,0.00,0.00,0.00,0.00,0.00,0.00,0.00,0.00,0.00,0.00,0.00,0.00,0.00,0.00,0.00,0.00,0.00,0.00,0.00,0.00,0.00,0.00,0.00,0.00,0.00,0.00,0.00,0.00,0.00,0.17,0.17,0.26,0.26,0.43,0.52,0.87,0.87,0.87,1.04,1.22,1.39,1.39,1.91,2.69,3.74,4.00,6.60,6.86,10.77,13.55,16.33,19.46,21.20,25.02,28.50
84053033,US,USA,840,53033,King,Washington,Washington King,47.4913789,-121.83461,"King, Washington, US",0.04,0.04,0.04,0.04,0.04,0.04,0.04,0.04,0.04,0.04,0.04,0.04,0.04,0.04,0.04,0.04,0.04,0.04,0.04,0.04,0.04,0.04,0.04,0.04,0.04,0.04,0.04,0.04,0.04,0.04,0.04,0.04,0.04,0.04,0.04,0.04,0.04,0.04,0.27,0.40,0.63,0.94,1.39,2.28,2.60,3.18,3.72,3.72,5.19,8.51,12.09,14.69,17.33,17.33,21.85,25.48,25.17,31.03,35.51,41.83,46.57,52.40,52.40,60.86,70.62,70.62,93.01,96.69,96.78,104.34,104.34,118.94
84053053,US,USA,840,53053,Pierce,Washington,Washington Pierce,47.0389277,-122.1406,"Pierce, Washington, US",0.00,0.00,0.00,0.00,0.00,0.00,0.00,0.00,0.00,0.00,0.00,0.00,0.00,0.00,0.00,0.00,0.00,0.00,0.00,0.00,0.00,0.00,0.00,0.00,0.00,0.00,0.00,0.00,0.00,0.00,0.00,0.00,0.00,0.00,0.00,0.00,0.00,0.00,0.00,0.00,0.00,0.00,0.00,0.00,0.00,0.11,0.45,0.45,0.45,1.57,1.91,2.13,2.92,2.92,4.26,5.05,6.29,8.42,9.32,10.66,12.01,14.14,15.49,17.40,20.88,25.93,25.93,35.58,35.58,42.31,42.31,55.89
84055079,US,USA,840,55079,Milwaukee,Wisconsin,Wisconsin Milwaukee,43.0048606,-87.967332,"Milwaukee, Wisconsin, US",0.00,0.00,0.00,0.00,0.00,0.00,0.00,0.00,0.00,0.00,0.00,0.00,0.00,0.00,0.00,0.00,0.00,0.00,0.00,0.00,0.00,0.00,0.00,0.00,0.00,0.00,0.00,0.00,0.00,0.00,0.00,0.00,0.00,0.00,0.00,0.00,0.00,0.00,0.00,0.00,0.00,0.00,0.00,0.00,0.00,0.00,0.00,0.00,0.00,0.00,0.00,0.21,0.63,0.63,1.37,2.53,4.96,6.54,10.02,13.29,19.20,21.52,25.63,34.28,36.60,43.35,57.07,63.92,65.08,74.89,82.28,91.67